{"type":"FeatureCollection","crs":{"type":"name","properties":{"name":"urn:ogc:def:crs:OGC:1.3:CRS84"}},"features":[{"type":"Feature","properties":{"Country":"United States","title":"Bonneville Dam","image":"<img src='cascadia/images/Dams/BonnevilleDam.jpg'>","text3":"Owner: USACE Northwestern Division","Operator":null,"Latitude":45.6441,"Longitude":-121.941009,"City":"Cascade Locks","County":"Multnomah","StateProv":"Oregon","ZipCode":"97014","Address":"ATTN: Project Office","text2":"Maximum ouput: 1162 megawatts","Renew_MW":1162,"text1":"Primary Source: Hydroelectric","PrimRenew":"Hydroelectric","Coal_MW":0,"NG_MW":0,"Crude_MW":0,"Other_MW":0,"Hydro_MW":1162,"HydroPS_MW":0,"Nuclear_MW":0,"Solar_MW":0,"Wind_MW":0,"Geo_MW":0,"Bio_MW":0,"Tidal_MW":0,"Source":"https://commons.wikimedia.org/wiki/Category:Bonneville_Dam#/media/File:BonnevilleSpillway.jpg","Period":201705,"orig_ogc_f":6},"geometry":{"type":"Point","coordinates":[-121.94101,45.6441]}},{"type":"Feature","properties":{"Country":"United States","title":"Boundary Dam","image":"<img src='cascadia/images/Dams/.jpg'>","text3":"Owner: City of Seattle - (WA)","Operator":null,"Latitude":48.987111,"Longitude":-117.347847,"City":"Metaline Falls","County":"Pend Oreille","StateProv":"Washington","ZipCode":"99153","Address":"P.O. Box 219","text2":"Maximum ouput: 1118.60 megawatts","Renew_MW":1118.6,"text1":"Primary Source: Hydroelectric","PrimRenew":"Hydroelectric","Coal_MW":0,"NG_MW":0,"Crude_MW":0,"Other_MW":0,"Hydro_MW":1118.6,"HydroPS_MW":0,"Nuclear_MW":0,"Solar_MW":0,"Wind_MW":0,"Geo_MW":0,"Bio_MW":0,"Tidal_MW":0,"Source":"http://www.tetratech.com/en/projects/seattle-city-light-boundary-dam-hydrographic-and-3d-surveys","Period":201705,"orig_ogc_f":7},"geometry":{"type":"Point","coordinates":[-117.34785,48.98711]}},{"type":"Feature","properties":{"Country":"United States","title":"Brownlee Dam","image":"<img src='cascadia/images/Dams/BrownleeDam.jpg'>","text3":"Owner: Idaho Power Co","Operator":null,"Latitude":44.8367,"Longitude":-116.8975,"City":"Cambridge","County":"Washington","StateProv":"Idaho","ZipCode":"83610","Address":"ID Highway #71 @ the Snake R.","text2":"Maximum ouput: 585.40 megawatts","Renew_MW":585.4,"text1":"Primary Source: Hydroelectric","PrimRenew":"Hydroelectric","Coal_MW":0,"NG_MW":0,"Crude_MW":0,"Other_MW":0,"Hydro_MW":585.4,"HydroPS_MW":0,"Nuclear_MW":0,"Solar_MW":0,"Wind_MW":0,"Geo_MW":0,"Bio_MW":0,"Tidal_MW":0,"Source":"https://commons.wikimedia.org/wiki/Category:Brownlee_Dam#/media/File:Brownlee.jpg","Period":201705,"orig_ogc_f":8},"geometry":{"type":"Point","coordinates":[-116.8975,44.8367]}},{"type":"Feature","properties":{"Country":"United States","title":"Cabinet Gorge Dam","image":"<img src='cascadia/images/Dams/CabinetGorgeDam.jpg'>","text3":"Owner: Avista Corp","Operator":null,"Latitude":48.084444,"Longitude":-116.053056,"City":"Clark Fork","County":"Bonner","StateProv":"Idaho","ZipCode":"83811","Address":"61940 Hwy 200","text2":"Maximum ouput: 265.20 megawatts","Renew_MW":265.2,"text1":"Primary Source: Hydroelectric","PrimRenew":"Hydroelectric","Coal_MW":0,"NG_MW":0,"Crude_MW":0,"Other_MW":0,"Hydro_MW":265.2,"HydroPS_MW":0,"Nuclear_MW":0,"Solar_MW":0,"Wind_MW":0,"Geo_MW":0,"Bio_MW":0,"Tidal_MW":0,"Source":"https://commons.wikimedia.org/wiki/Category:Cabinet_Gorge_Dam#/media/File:HD.11C.084_(14740078038).jpg","Period":201705,"orig_ogc_f":9},"geometry":{"type":"Point","coordinates":[-116.057494,48.085527]}},{"type":"Feature","properties":{"Country":"United States","title":"Carmen-Smith Hydroelectric Project","image":"<img src='cascadia/images/Dams/Carmen-SmithHydroelectricProject.jpg'>","text3":"Owner: Eugene Water & Electric Board","Operator":null,"Latitude":44.285977,"Longitude":-122.041352,"City":"McKenzie Bridge","County":"Linn","StateProv":"Oregon","ZipCode":"97413","Address":"59727 McKenzie Highway","text2":"Maximum ouput: 114.30 megawatts","Renew_MW":114.3,"text1":"Primary Source: Hydroelectric","PrimRenew":"Hydroelectric","Coal_MW":0,"NG_MW":0,"Crude_MW":0,"Other_MW":0,"Hydro_MW":114.3,"HydroPS_MW":0,"Nuclear_MW":0,"Solar_MW":0,"Wind_MW":0,"Geo_MW":0,"Bio_MW":0,"Tidal_MW":0,"Source":"https://www.americanwhitewater.org/content/Photo/detail/photoid/40110/","Period":201705,"orig_ogc_f":10},"geometry":{"type":"Point","coordinates":[-122.04135,44.28598]}},{"type":"Feature","properties":{"Country":"United States","title":"Chief Joseph Dam","image":"<img src='cascadia/images/Dams/ChiefJosephDam.jpg'>","text3":"Owner: USACE Northwestern Division","Operator":null,"Latitude":47.9951,"Longitude":-119.6404,"City":"Bridgeport","County":"Douglas","StateProv":"Washington","ZipCode":"98813","Address":"P.O. BOX 1120","text2":"Maximum ouput: 2456.20 megawatts","Renew_MW":2456.2,"text1":"Primary Source: Hydroelectric","PrimRenew":"Hydroelectric","Coal_MW":0,"NG_MW":0,"Crude_MW":0,"Other_MW":0,"Hydro_MW":2456.2,"HydroPS_MW":0,"Nuclear_MW":0,"Solar_MW":0,"Wind_MW":0,"Geo_MW":0,"Bio_MW":0,"Tidal_MW":0,"Source":"https://en.wikipedia.org/wiki/List_of_dams_and_reservoirs_in_Washington#/media/File:Chief_Joseph_Dam,_Washington.jpg","Period":201705,"orig_ogc_f":13},"geometry":{"type":"Point","coordinates":[-119.6404,47.9951]}},{"type":"Feature","properties":{"Country":"United States","title":"Detroit Dam","image":"<img src='cascadia/images/Dams/DetroitDam.jpg'>","text3":"Owner: USACE Northwestern Division","Operator":null,"Latitude":44.7224,"Longitude":-122.2511,"City":"Lowell","County":"Marion","StateProv":"Oregon","ZipCode":"97452","Address":"P.O. BOX 429","text2":"Maximum ouput: 100 megawatts","Renew_MW":100,"text1":"Primary Source: Hydroelectric","PrimRenew":"Hydroelectric","Coal_MW":0,"NG_MW":0,"Crude_MW":0,"Other_MW":0,"Hydro_MW":100,"HydroPS_MW":0,"Nuclear_MW":0,"Solar_MW":0,"Wind_MW":0,"Geo_MW":0,"Bio_MW":0,"Tidal_MW":0,"Source":"https://commons.wikimedia.org/wiki/File:Detroit_Dam_-_Santiam_Hwy.,_Ore._(8113416375).jpg","Period":201705,"orig_ogc_f":19},"geometry":{"type":"Point","coordinates":[-122.2511,44.7224]}},{"type":"Feature","properties":{"Country":"United States","title":"Diablo Dam","image":"<img src='cascadia/images/Dams/DiabloDam.jpg'>","text3":"Owner: City of Seattle - (WA)","Operator":null,"Latitude":48.713853,"Longitude":-121.131736,"City":"Rockport","County":"Whatcom","StateProv":"Washington","ZipCode":"98283","Address":"500 Newhalem Street","text2":"Maximum ouput: 182.40 megawatts","Renew_MW":182.4,"text1":"Primary Source: Hydroelectric","PrimRenew":"Hydroelectric","Coal_MW":0,"NG_MW":0,"Crude_MW":0,"Other_MW":0,"Hydro_MW":182.4,"HydroPS_MW":0,"Nuclear_MW":0,"Solar_MW":0,"Wind_MW":0,"Geo_MW":0,"Bio_MW":0,"Tidal_MW":0,"Source":"https://www.seattle.gov/cityarchives/exhibits-and-education/online-exhibits/a-city-at-work/seattle-city-light","Period":201705,"orig_ogc_f":20},"geometry":{"type":"Point","coordinates":[-121.13174,48.71385]}},{"type":"Feature","properties":{"Country":"United States","title":"Dworshak Dam","image":"<img src='cascadia/images/Dams/DworshakDam.jpg'>","text3":"Owner: USACE Northwestern Division","Operator":null,"Latitude":46.5143,"Longitude":-116.2977,"City":"Ahsahka","County":"Clearwater","StateProv":"Idaho","ZipCode":"83520","Address":"P.O. BOX 48","text2":"Maximum ouput: 400 megawatts","Renew_MW":400,"text1":"Primary Source: Hydroelectric","PrimRenew":"Hydroelectric","Coal_MW":0,"NG_MW":0,"Crude_MW":0,"Other_MW":0,"Hydro_MW":400,"HydroPS_MW":0,"Nuclear_MW":0,"Solar_MW":0,"Wind_MW":0,"Geo_MW":0,"Bio_MW":0,"Tidal_MW":0,"Source":"http://www.nww.usace.army.mil/Locations/District-Locks-and-Dams/Dworshak-Dam-and-Reservoir/","Period":201705,"orig_ogc_f":21},"geometry":{"type":"Point","coordinates":[-116.2977,46.5143]}},{"type":"Feature","properties":{"Country":"United States","title":"Gorge Dam","image":"<img src='cascadia/images/Dams/GorgeDam.jpg'>","text3":"Owner: City of Seattle - (WA)","Operator":null,"Latitude":48.698056,"Longitude":-121.208611,"City":"Rockport","County":"Whatcom","StateProv":"Washington","ZipCode":"98283","Address":"500 Newhalem Street","text2":"Maximum ouput: 207.30 megawatts","Renew_MW":207.3,"text1":"Primary Source: Hydroelectric","PrimRenew":"Hydroelectric","Coal_MW":0,"NG_MW":0,"Crude_MW":0,"Other_MW":0,"Hydro_MW":207.3,"HydroPS_MW":0,"Nuclear_MW":0,"Solar_MW":0,"Wind_MW":0,"Geo_MW":0,"Bio_MW":0,"Tidal_MW":0,"Source":"https://en.wikipedia.org/wiki/Skagit_River_Hydroelectric_Project#/media/File:Gorge_Dam_Skagit_River.jpg","Period":201705,"orig_ogc_f":32},"geometry":{"type":"Point","coordinates":[-121.20861,48.69806]}},{"type":"Feature","properties":{"Country":"United States","title":"Grand Coulee Dam","image":"<img src='cascadia/images/Dams/GrandCouleeDam.jpg'>","text3":"Owner: U S Bureau of Reclamation","Operator":null,"Latitude":47.957511,"Longitude":-118.977323,"City":"Grand Coulee","County":"Grant","StateProv":"Washington","ZipCode":"99133","Address":"n/a","text2":"Maximum ouput: 6809 megawatts","Renew_MW":6809,"text1":"Primary Source: Hydroelectric","PrimRenew":"Hydroelectric","Coal_MW":0,"NG_MW":0,"Crude_MW":0,"Other_MW":0,"Hydro_MW":6495,"HydroPS_MW":314,"Nuclear_MW":0,"Solar_MW":0,"Wind_MW":0,"Geo_MW":0,"Bio_MW":0,"Tidal_MW":0,"Source":"https://en.wikipedia.org/wiki/Grand_Coulee_Dam#/media/File:Grand_Coulee_Dam_aerial.jpg","Period":201705,"orig_ogc_f":34},"geometry":{"type":"Point","coordinates":[-118.97732,47.95751]}},{"type":"Feature","properties":{"Country":"United States","title":"Culmback Dam","image":"<img src='cascadia/images/Dams/CulmbackDam.jpg'>","text3":"Owner: PUD 1 of Snohomish County","Operator":null,"Latitude":47.9084,"Longitude":-121.8144,"City":"Sultan","County":"Snohomish","StateProv":"Washington","ZipCode":"98294","Address":"31411 116th SE Extended","text2":"Maximum ouput: 111.80 megawatts","Renew_MW":111.8,"text1":"Primary Source: Hydroelectric","PrimRenew":"Hydroelectric","Coal_MW":0,"NG_MW":0,"Crude_MW":0,"Other_MW":0,"Hydro_MW":111.8,"HydroPS_MW":0,"Nuclear_MW":0,"Solar_MW":0,"Wind_MW":0,"Geo_MW":0,"Bio_MW":0,"Tidal_MW":0,"Source":"https://www.hippostcard.com/uploads/cache/fb4d4624cb30fed6cada577554d8ca31-460x293.png","Period":201705,"orig_ogc_f":36},"geometry":{"type":"Point","coordinates":[-121.8144,47.9084]}},{"type":"Feature","properties":{"Country":"United States","title":"Hells Canyon Dam","image":"<img src='cascadia/images/Dams/HellsCanyonDam.jpg'>","text3":"Owner: Idaho Power Co","Operator":null,"Latitude":45.2439,"Longitude":-116.7008,"City":"Oxbow","County":"Wallowa","StateProv":"Oregon","ZipCode":"97840","Address":"22 Miles N of OR Highway 86","text2":"Maximum ouput: 391.50 megawatts","Renew_MW":391.5,"text1":"Primary Source: Hydroelectric","PrimRenew":"Hydroelectric","Coal_MW":0,"NG_MW":0,"Crude_MW":0,"Other_MW":0,"Hydro_MW":391.5,"HydroPS_MW":0,"Nuclear_MW":0,"Solar_MW":0,"Wind_MW":0,"Geo_MW":0,"Bio_MW":0,"Tidal_MW":0,"Source":"https://en.wikipedia.org/wiki/Hells_Canyon_Dam#/media/File:Hells_Canyon_Dam_-_2.jpg","Period":201705,"orig_ogc_f":38},"geometry":{"type":"Point","coordinates":[-116.7008,45.2439]}},{"type":"Feature","properties":{"Country":"United States","title":"Hungry Horse Dam","image":"<img src='cascadia/images/Dams/HungryHorseDam.jpg'>","text3":"Owner: U S Bureau of Reclamation","Operator":null,"Latitude":48.341521,"Longitude":-114.01443,"City":"Columbia Falls","County":"Flathead","StateProv":"Montana","ZipCode":"59919","Address":"n/a","text2":"Maximum ouput: 428 megawatts","Renew_MW":428,"text1":"Primary Source: Hydroelectric","PrimRenew":"Hydroelectric","Coal_MW":0,"NG_MW":0,"Crude_MW":0,"Other_MW":0,"Hydro_MW":428,"HydroPS_MW":0,"Nuclear_MW":0,"Solar_MW":0,"Wind_MW":0,"Geo_MW":0,"Bio_MW":0,"Tidal_MW":0,"Source":"https://en.wikipedia.org/wiki/Hungry_Horse_Dam#/media/File:Hngryh2.jpg","Period":201705,"orig_ogc_f":44},"geometry":{"type":"Point","coordinates":[-114.01443,48.34152]}},{"type":"Feature","properties":{"Country":"United States","title":"Ice Harbor Dam","image":"<img src='cascadia/images/Dams/IceHarborDam.jpg'>","text3":"Owner: USACE Northwestern Division","Operator":null,"Latitude":46.249801,"Longitude":-118.879838,"City":"Burbank","County":"Walla Walla","StateProv":"Washington","ZipCode":"99323","Address":"2763 Monument Drive","text2":"Maximum ouput: 603 megawatts","Renew_MW":603,"text1":"Primary Source: Hydroelectric","PrimRenew":"Hydroelectric","Coal_MW":0,"NG_MW":0,"Crude_MW":0,"Other_MW":0,"Hydro_MW":603,"HydroPS_MW":0,"Nuclear_MW":0,"Solar_MW":0,"Wind_MW":0,"Geo_MW":0,"Bio_MW":0,"Tidal_MW":0,"Source":"https://www.google.com/search?q=Ice+Harbor+Dam&client=ubuntu&hs=Itu&channel=fs&source=lnms&tbm=isch&sa=X&ved=0ahUKEwiAgq2l_4zaAhUM74MKHeQxBAsQ_AUICygC&biw=1472&bih=728#imgrc=u-JppIP4_AustM:","Period":201705,"orig_ogc_f":45},"geometry":{"type":"Point","coordinates":[-118.87984,46.2498]}},{"type":"Feature","properties":{"Country":"United States","title":"John Day Dam","image":"<img src='cascadia/images/Dams/JohnDayDam.jpg'>","text3":"Owner: USACE Northwestern Division","Operator":null,"Latitude":45.71644,"Longitude":-120.69408,"City":"The Dalles","County":"Sherman","StateProv":"Oregon","ZipCode":"97058","Address":"P.O. BOX 564","text2":"Maximum ouput: 2160 megawatts","Renew_MW":2160,"text1":"Primary Source: Hydroelectric","PrimRenew":"Hydroelectric","Coal_MW":0,"NG_MW":0,"Crude_MW":0,"Other_MW":0,"Hydro_MW":2160,"HydroPS_MW":0,"Nuclear_MW":0,"Solar_MW":0,"Wind_MW":0,"Geo_MW":0,"Bio_MW":0,"Tidal_MW":0,"Source":"http://www.crso.info/projects/JDD.html","Period":201705,"orig_ogc_f":46},"geometry":{"type":"Point","coordinates":[-120.69408,45.71644]}},{"type":"Feature","properties":{"Country":"United States","title":"Seli’š Ksanka Qlispe","image":"<img src='cascadia/images/Dams/SelisKsankaQlispe.jpg'>","text3":"Owner: NorthWestern Energy","Operator":null,"Latitude":47.6777,"Longitude":-114.2339,"City":"Polson","County":"Lake","StateProv":"Montana","ZipCode":"59860","Address":"7000 Kerr Dam Road","text2":"Maximum ouput: 207.60 megawatts","Renew_MW":207.6,"text1":"Primary Source: Hydroelectric","PrimRenew":"Hydroelectric","Coal_MW":0,"NG_MW":0,"Crude_MW":0,"Other_MW":0,"Hydro_MW":207.6,"HydroPS_MW":0,"Nuclear_MW":0,"Solar_MW":0,"Wind_MW":0,"Geo_MW":0,"Bio_MW":0,"Tidal_MW":0,"Source":"https://en.wikipedia.org/wiki/Kerr_Dam#/media/File:2011-06-07_17-17-11_996.jpg","Period":201705,"orig_ogc_f":48},"geometry":{"type":"Point","coordinates":[-114.2339,47.6777]}},{"type":"Feature","properties":{"Country":"United States","title":"Libby Dam","image":"<img src='cascadia/images/Dams/LibbyDam.jpg'>","text3":"Owner: USACE Northwestern Division","Operator":null,"Latitude":48.4098,"Longitude":-115.3143,"City":"Libby","County":"Lincoln","StateProv":"Montana","ZipCode":"59923","Address":"17115 Highway No. 37","text2":"Maximum ouput: 525 megawatts","Renew_MW":525,"text1":"Primary Source: Hydroelectric","PrimRenew":"Hydroelectric","Coal_MW":0,"NG_MW":0,"Crude_MW":0,"Other_MW":0,"Hydro_MW":525,"HydroPS_MW":0,"Nuclear_MW":0,"Solar_MW":0,"Wind_MW":0,"Geo_MW":0,"Bio_MW":0,"Tidal_MW":0,"Source":"http://www.newsdata.com/fishletter/352/story3.jpg","Period":201705,"orig_ogc_f":55},"geometry":{"type":"Point","coordinates":[-115.3143,48.4098]}},{"type":"Feature","properties":{"Country":"United States","title":"Little Goose Dam","image":"<img src='cascadia/images/Dams/LittleGooseDam.jpg'>","text3":"Owner: USACE Northwestern Division","Operator":null,"Latitude":46.5838,"Longitude":-118.0273,"City":"Dayton","County":"Columbia","StateProv":"Washington","ZipCode":"99328","Address":"1001 Little Goose Dam Road","text2":"Maximum ouput: 810 megawatts","Renew_MW":810,"text1":"Primary Source: Hydroelectric","PrimRenew":"Hydroelectric","Coal_MW":0,"NG_MW":0,"Crude_MW":0,"Other_MW":0,"Hydro_MW":810,"HydroPS_MW":0,"Nuclear_MW":0,"Solar_MW":0,"Wind_MW":0,"Geo_MW":0,"Bio_MW":0,"Tidal_MW":0,"Source":"https://damsense.org/wp-content/uploads/2017/05/lgs2.jpg","Period":201705,"orig_ogc_f":56},"geometry":{"type":"Point","coordinates":[-118.0273,46.5838]}},{"type":"Feature","properties":{"Country":"United States","title":"Lookout Point Dam","image":"<img src='cascadia/images/Dams/LookoutPointDam.jpg'>","text3":"Owner: USACE Northwestern Division","Operator":null,"Latitude":43.9153,"Longitude":-122.7531,"City":"Lowell","County":"Lane","StateProv":"Oregon","ZipCode":"97452","Address":"P.O. BOX 429","text2":"Maximum ouput: 120 megawatts","Renew_MW":120,"text1":"Primary Source: Hydroelectric","PrimRenew":"Hydroelectric","Coal_MW":0,"NG_MW":0,"Crude_MW":0,"Other_MW":0,"Hydro_MW":120,"HydroPS_MW":0,"Nuclear_MW":0,"Solar_MW":0,"Wind_MW":0,"Geo_MW":0,"Bio_MW":0,"Tidal_MW":0,"Source":"https://en.wikipedia.org/wiki/Lookout_Point_Dam#/media/File:Lookout_Point_Dam.jpg","Period":201705,"orig_ogc_f":57},"geometry":{"type":"Point","coordinates":[-122.7531,43.9153]}},{"type":"Feature","properties":{"Country":"United States","title":"Lower Baker Dam","image":"<img src='cascadia/images/Dams/LowerBakerDam.jpg'>","text3":"Owner: Puget Sound Energy Inc","Operator":null,"Latitude":48.5478,"Longitude":-121.7407,"City":"Concrete","County":"Skagit","StateProv":"Washington","ZipCode":"98237","Address":"46110 E Main St","text2":"Maximum ouput: 111.20 megawatts","Renew_MW":111.2,"text1":"Primary Source: Hydroelectric","PrimRenew":"Hydroelectric","Coal_MW":0,"NG_MW":0,"Crude_MW":0,"Other_MW":0,"Hydro_MW":111.2,"HydroPS_MW":0,"Nuclear_MW":0,"Solar_MW":0,"Wind_MW":0,"Geo_MW":0,"Bio_MW":0,"Tidal_MW":0,"Source":"https://static1.squarespace.com/static/51994738e4b0079d49c7a4da/51cb9f86e4b0bf9a1f4be92f/53bb1595e4b08fa0d2c0ba94/1404771978377/CRDSC_2747.jpg","Period":201705,"orig_ogc_f":58},"geometry":{"type":"Point","coordinates":[-121.7407,48.5478]}},{"type":"Feature","properties":{"Country":"United States","title":"Lower Granite Dam","image":"<img src='cascadia/images/Dams/LowerGraniteDam.jpg'>","text3":"Owner: USACE Northwestern Division","Operator":null,"Latitude":46.659503,"Longitude":-117.429385,"City":"Pomeroy","County":"Whitman","StateProv":"Washington","ZipCode":"99347","Address":"885 Almota Ferry Road","text2":"Maximum ouput: 810 megawatts","Renew_MW":810,"text1":"Primary Source: Hydroelectric","PrimRenew":"Hydroelectric","Coal_MW":0,"NG_MW":0,"Crude_MW":0,"Other_MW":0,"Hydro_MW":810,"HydroPS_MW":0,"Nuclear_MW":0,"Solar_MW":0,"Wind_MW":0,"Geo_MW":0,"Bio_MW":0,"Tidal_MW":0,"Source":"http://www.nwd-wc.usace.army.mil/dd/common/projects/www/lwg.html","Period":201705,"orig_ogc_f":59},"geometry":{"type":"Point","coordinates":[-117.42938,46.6595]}},{"type":"Feature","properties":{"Country":"United States","title":"Lower Monumental Dam","image":"<img src='cascadia/images/Dams/LowerMonumentalDam.jpg'>","text3":"Owner: USACE Northwestern Division","Operator":null,"Latitude":46.5635,"Longitude":-118.5397,"City":"Kahlotus","County":"Walla Walla","StateProv":"Washington","ZipCode":"99335","Address":"P.O. BOX 10","text2":"Maximum ouput: 810 megawatts","Renew_MW":810,"text1":"Primary Source: Hydroelectric","PrimRenew":"Hydroelectric","Coal_MW":0,"NG_MW":0,"Crude_MW":0,"Other_MW":0,"Hydro_MW":810,"HydroPS_MW":0,"Nuclear_MW":0,"Solar_MW":0,"Wind_MW":0,"Geo_MW":0,"Bio_MW":0,"Tidal_MW":0,"Source":"https://www.inlander.com/spokane/decision-be-dammed/Content?oid=4757824","Period":201705,"orig_ogc_f":60},"geometry":{"type":"Point","coordinates":[-118.5397,46.5635]}},{"type":"Feature","properties":{"Country":"United States","title":"Lucky Peak Dam","image":"<img src='cascadia/images/Dams/LuckyPeakDam.jpg'>","text3":"Owner: Boise-Kuna Irrigation District","Operator":null,"Latitude":43.528,"Longitude":-116.0583,"City":"Boise","County":"Ada","StateProv":"Idaho","ZipCode":"83716","Address":"9731 E Highway 21","text2":"Maximum ouput: 101.20 megawatts","Renew_MW":101.2,"text1":"Primary Source: Hydroelectric","PrimRenew":"Hydroelectric","Coal_MW":0,"NG_MW":0,"Crude_MW":0,"Other_MW":0,"Hydro_MW":101.2,"HydroPS_MW":0,"Nuclear_MW":0,"Solar_MW":0,"Wind_MW":0,"Geo_MW":0,"Bio_MW":0,"Tidal_MW":0,"Source":"https://en.wikipedia.org/wiki/Lucky_Peak_Dam#/media/File:USACE_Lucky_Peak_Dam_Idaho.jpg","Period":201705,"orig_ogc_f":62},"geometry":{"type":"Point","coordinates":[-116.0583,43.528]}},{"type":"Feature","properties":{"Country":"United States","title":"Mayfield Dam","image":"<img src='cascadia/images/Dams/MayfieldDam.jpg'>","text3":"Owner: City of Tacoma  - (WA)","Operator":null,"Latitude":46.5035,"Longitude":-122.5885,"City":"Silver Creek","County":"Lewis","StateProv":"Washington","ZipCode":"98585","Address":"418 Gershick Road","text2":"Maximum ouput: 162 megawatts","Renew_MW":162,"text1":"Primary Source: Hydroelectric","PrimRenew":"Hydroelectric","Coal_MW":0,"NG_MW":0,"Crude_MW":0,"Other_MW":0,"Hydro_MW":162,"HydroPS_MW":0,"Nuclear_MW":0,"Solar_MW":0,"Wind_MW":0,"Geo_MW":0,"Bio_MW":0,"Tidal_MW":0,"Source":"https://i.ytimg.com/vi/dtQibjvBDlM/maxresdefault.jpg","Period":201705,"orig_ogc_f":65},"geometry":{"type":"Point","coordinates":[-122.5885,46.5035]}},{"type":"Feature","properties":{"Country":"United States","title":"McNary Dam","image":"<img src='cascadia/images/Dams/McNaryDam.jpg'>","text3":"Owner: USACE Northwestern Division","Operator":null,"Latitude":45.9402,"Longitude":-119.2988,"City":"Umatilla","County":"Umatilla","StateProv":"Oregon","ZipCode":"97882","Address":"P.O. BOX 1230","text2":"Maximum ouput: 990.50 megawatts","Renew_MW":990.5,"text1":"Primary Source: Hydroelectric","PrimRenew":"Hydroelectric","Coal_MW":0,"NG_MW":0,"Crude_MW":0,"Other_MW":0,"Hydro_MW":990.5,"HydroPS_MW":0,"Nuclear_MW":0,"Solar_MW":0,"Wind_MW":0,"Geo_MW":0,"Bio_MW":0,"Tidal_MW":0,"Source":"https://commons.wikimedia.org/wiki/File:McNary_Dam,_Umatilla,_Oregon.jpg","Period":201705,"orig_ogc_f":66},"geometry":{"type":"Point","coordinates":[-119.2988,45.9402]}},{"type":"Feature","properties":{"Country":"United States","title":"Merwin Dam","image":"<img src='cascadia/images/Dams/MerwinDam.jpg'>","text3":"Owner: PacifiCorp","Operator":null,"Latitude":45.9567,"Longitude":-122.554444,"City":"Ariel","County":"Cowlitz","StateProv":"Washington","ZipCode":"98603","Address":"300 Merwin Village Road","text2":"Maximum ouput: 136 megawatts","Renew_MW":136,"text1":"Primary Source: Hydroelectric","PrimRenew":"Hydroelectric","Coal_MW":0,"NG_MW":0,"Crude_MW":0,"Other_MW":0,"Hydro_MW":136,"HydroPS_MW":0,"Nuclear_MW":0,"Solar_MW":0,"Wind_MW":0,"Geo_MW":0,"Bio_MW":0,"Tidal_MW":0,"Source":"https://bridgehunter.com/wa/cowlitz/merwin-dam/","Period":201705,"orig_ogc_f":68},"geometry":{"type":"Point","coordinates":[-122.55444,45.9567]}},{"type":"Feature","properties":{"Country":"United States","title":"Mossyrock Dam","image":"<img src='cascadia/images/Dams/MossyrockDam.jpg'>","text3":"Owner: City of Tacoma  - (WA)","Operator":null,"Latitude":46.5347,"Longitude":-122.4247,"City":"Silver Creek","County":"Lewis","StateProv":"Washington","ZipCode":"98585","Address":"418 Gershick Road","text2":"Maximum ouput: 300 megawatts","Renew_MW":300,"text1":"Primary Source: Hydroelectric","PrimRenew":"Hydroelectric","Coal_MW":0,"NG_MW":0,"Crude_MW":0,"Other_MW":0,"Hydro_MW":300,"HydroPS_MW":0,"Nuclear_MW":0,"Solar_MW":0,"Wind_MW":0,"Geo_MW":0,"Bio_MW":0,"Tidal_MW":0,"Source":"https://www.reddit.com/r/megalophobia/comments/7ubjg7/eat_you_for_breakfast_and_spit_you_out_for_lunch/","Period":201705,"orig_ogc_f":70},"geometry":{"type":"Point","coordinates":[-122.4247,46.5347]}},{"type":"Feature","properties":{"Country":"United States","title":"Noxon Rapids Dam","image":"<img src='cascadia/images/Dams/NoxonRapidsDam.jpg'>","text3":"Owner: Avista Corp","Operator":null,"Latitude":47.96048,"Longitude":-115.73361,"City":"Noxon","County":"Sanders","StateProv":"Montana","ZipCode":"59853","Address":"84 Avista Power Road","text2":"Maximum ouput: 532.40 megawatts","Renew_MW":532.4,"text1":"Primary Source: Hydroelectric","PrimRenew":"Hydroelectric","Coal_MW":0,"NG_MW":0,"Crude_MW":0,"Other_MW":0,"Hydro_MW":532.4,"HydroPS_MW":0,"Nuclear_MW":0,"Solar_MW":0,"Wind_MW":0,"Geo_MW":0,"Bio_MW":0,"Tidal_MW":0,"Source":"https://upload.wikimedia.org/wikipedia/commons/c/cb/Noxon_Reservoir.JPG","Period":201705,"orig_ogc_f":72},"geometry":{"type":"Point","coordinates":[-115.73361,47.96048]}},{"type":"Feature","properties":{"Country":"United States","title":"Oxbow Dam","image":"<img src='cascadia/images/Dams/OxbowDam.jpg'>","text3":"Owner: Idaho Power Co","Operator":null,"Latitude":44.971643,"Longitude":-116.835042,"City":"Oxbow","County":"Baker","StateProv":"Oregon","ZipCode":"97840","Address":"OR Highway 86 at the Snake R.","text2":"Maximum ouput: 190 megawatts","Renew_MW":190,"text1":"Primary Source: Hydroelectric","PrimRenew":"Hydroelectric","Coal_MW":0,"NG_MW":0,"Crude_MW":0,"Other_MW":0,"Hydro_MW":190,"HydroPS_MW":0,"Nuclear_MW":0,"Solar_MW":0,"Wind_MW":0,"Geo_MW":0,"Bio_MW":0,"Tidal_MW":0,"Source":"EIA-860, EIA-860M and EIA-923","Period":201705,"orig_ogc_f":73},"geometry":{"type":"Point","coordinates":[-116.83504,44.97164]}},{"type":"Feature","properties":{"Country":"United States","title":"Palisades Dam","image":"<img src='cascadia/images/Dams/PalisadesDam.jpg'>","text3":"Owner: U S Bureau of Reclamation","Operator":null,"Latitude":43.334849,"Longitude":-111.205752,"City":"Palisades","County":"Bonneville","StateProv":"Idaho","ZipCode":"83428","Address":"n/a","text2":"Maximum ouput: 176.40 megawatts","Renew_MW":176.4,"text1":"Primary Source: Hydroelectric","PrimRenew":"Hydroelectric","Coal_MW":0,"NG_MW":0,"Crude_MW":0,"Other_MW":0,"Hydro_MW":176.4,"HydroPS_MW":0,"Nuclear_MW":0,"Solar_MW":0,"Wind_MW":0,"Geo_MW":0,"Bio_MW":0,"Tidal_MW":0,"Source":"https://commons.wikimedia.org/wiki/Category:Palisades_Dam#/media/File:Palisades_Dam_(4306260425).jpg","Period":201705,"orig_ogc_f":74},"geometry":{"type":"Point","coordinates":[-111.20575,43.33485]}},{"type":"Feature","properties":{"Country":"United States","title":"Pelton Dam","image":"<img src='cascadia/images/Dams/PeltonDam.jpg'>","text3":"Owner: Portland General Electric Co","Operator":null,"Latitude":44.694374,"Longitude":-121.231379,"City":"Madras","County":"Jefferson","StateProv":"Oregon","ZipCode":"97741","Address":"4133 NW Pelton Dam Rd","text2":"Maximum ouput: 109.80 megawatts","Renew_MW":109.8,"text1":"Primary Source: Hydroelectric","PrimRenew":"Hydroelectric","Coal_MW":0,"NG_MW":0,"Crude_MW":0,"Other_MW":0,"Hydro_MW":109.8,"HydroPS_MW":0,"Nuclear_MW":0,"Solar_MW":0,"Wind_MW":0,"Geo_MW":0,"Bio_MW":0,"Tidal_MW":0,"Source":"https://en.wikipedia.org/wiki/Pelton_Dam#/media/File:Pelton_Dam.jpg","Period":201705,"orig_ogc_f":76},"geometry":{"type":"Point","coordinates":[-121.23138,44.69437]}},{"type":"Feature","properties":{"Country":"United States","title":"Priest Rapids Dam","image":"<img src='cascadia/images/Dams/PriestRapidsDam.jpg'>","text3":"Owner: PUD No 2 of Grant County","Operator":null,"Latitude":46.6451,"Longitude":-119.908,"City":"Mattawa","County":"Grant","StateProv":"Washington","ZipCode":"99349","Address":"29086 Highway 243 South","text2":"Maximum ouput: 955.60 megawatts","Renew_MW":955.6,"text1":"Primary Source: Hydroelectric","PrimRenew":"Hydroelectric","Coal_MW":0,"NG_MW":0,"Crude_MW":0,"Other_MW":0,"Hydro_MW":955.6,"HydroPS_MW":0,"Nuclear_MW":0,"Solar_MW":0,"Wind_MW":0,"Geo_MW":0,"Bio_MW":0,"Tidal_MW":0,"Source":"http://www.tri-cityherald.com/news/local/article38330292.html","Period":201705,"orig_ogc_f":79},"geometry":{"type":"Point","coordinates":[-119.908,46.6451]}},{"type":"Feature","properties":{"Country":"United States","title":"Rock Island Dam","image":"<img src='cascadia/images/Dams/RockIslandDam.jpg'>","text3":"Owner: PUD No 1 of Chelan County","Operator":null,"Latitude":47.346111,"Longitude":-120.0917,"City":"Wenatchee","County":"Chelan","StateProv":"Washington","ZipCode":"98801","Address":"Rock Island Dam","text2":"Maximum ouput: 629.40 megawatts","Renew_MW":629.4,"text1":"Primary Source: Hydroelectric","PrimRenew":"Hydroelectric","Coal_MW":0,"NG_MW":0,"Crude_MW":0,"Other_MW":0,"Hydro_MW":629.4,"HydroPS_MW":0,"Nuclear_MW":0,"Solar_MW":0,"Wind_MW":0,"Geo_MW":0,"Bio_MW":0,"Tidal_MW":0,"Source":"https://commons.wikimedia.org/wiki/Category:Rock_Island_Dam#/media/File:Rock_Island_Dam_and_Alcoa_Wenatchee_aluminum_smelter_-_Flickr_-_brewbooks.jpg","Period":201705,"orig_ogc_f":83},"geometry":{"type":"Point","coordinates":[-120.0917,47.34611]}},{"type":"Feature","properties":{"Country":"United States","title":"Rocky Reach Dam","image":"<img src='cascadia/images/Dams/RockyReachDam.jpg'>","text3":"Owner: PUD No 1 of Chelan County","Operator":null,"Latitude":47.533611,"Longitude":-120.295278,"City":"Wenatchee","County":"Chelan","StateProv":"Washington","ZipCode":"98801","Address":"Rocky Reach Dam","text2":"Maximum ouput: 1299.60 megawatts","Renew_MW":1299.6,"text1":"Primary Source: Hydroelectric","PrimRenew":"Hydroelectric","Coal_MW":0,"NG_MW":0,"Crude_MW":0,"Other_MW":0,"Hydro_MW":1299.6,"HydroPS_MW":0,"Nuclear_MW":0,"Solar_MW":0,"Wind_MW":0,"Geo_MW":0,"Bio_MW":0,"Tidal_MW":0,"Source":"https://commons.wikimedia.org/wiki/Category:Rocky_Reach_Dam#/media/File:RockyReachDam.jpg","Period":201705,"orig_ogc_f":84},"geometry":{"type":"Point","coordinates":[-120.29528,47.53361]}},{"type":"Feature","properties":{"Country":"United States","title":"Ross Dam","image":"<img src='cascadia/images/Dams/RossDam.jpg'>","text3":"Owner: City of Seattle - (WA)","Operator":null,"Latitude":48.732577,"Longitude":-121.06788,"City":"Rockport","County":"Whatcom","StateProv":"Washington","ZipCode":"98283","Address":"500 Newhalem Street","text2":"Maximum ouput: 450 megawatts","Renew_MW":450,"text1":"Primary Source: Hydroelectric","PrimRenew":"Hydroelectric","Coal_MW":0,"NG_MW":0,"Crude_MW":0,"Other_MW":0,"Hydro_MW":450,"HydroPS_MW":0,"Nuclear_MW":0,"Solar_MW":0,"Wind_MW":0,"Geo_MW":0,"Bio_MW":0,"Tidal_MW":0,"Source":"https://en.wikipedia.org/wiki/Ross_Dam#/media/File:Ross_Dam_USACE_20031022.jpg","Period":201705,"orig_ogc_f":85},"geometry":{"type":"Point","coordinates":[-121.06788,48.73258]}},{"type":"Feature","properties":{"Country":"United States","title":"Round Butte Dam","image":"<img src='cascadia/images/Dams/RoundButteDam.jpg'>","text3":"Owner: Portland General Electric Co","Operator":null,"Latitude":44.605837,"Longitude":-121.277334,"City":"Madras","County":"Jefferson","StateProv":"Oregon","ZipCode":"97741","Address":"726 SW Lower Bend Rd","text2":"Maximum ouput: 372.50 megawatts","Renew_MW":372.5,"text1":"Primary Source: Hydroelectric","PrimRenew":"Hydroelectric","Coal_MW":0,"NG_MW":0,"Crude_MW":0,"Other_MW":0,"Hydro_MW":372.5,"HydroPS_MW":0,"Nuclear_MW":0,"Solar_MW":0,"Wind_MW":0,"Geo_MW":0,"Bio_MW":0,"Tidal_MW":0,"Source":"http://www.barnard-inc.com/projects/hydropower/round-butte-dam-selective-water-withdrawal-hydropower","Period":201705,"orig_ogc_f":86},"geometry":{"type":"Point","coordinates":[-121.27733,44.60584]}},{"type":"Feature","properties":{"Country":"United States","title":"Swift Dam","image":"<img src='cascadia/images/Dams/SwiftDam.jpg'>","text3":"Owner: PacifiCorp","Operator":null,"Latitude":46.060833,"Longitude":-122.201667,"City":"Cougar","County":"Skamania","StateProv":"Washington","ZipCode":"98616","Address":"Rd 91013 at Swift Creek Res.","text2":"Maximum ouput: 240 megawatts","Renew_MW":240,"text1":"Primary Source: Hydroelectric","PrimRenew":"Hydroelectric","Coal_MW":0,"NG_MW":0,"Crude_MW":0,"Other_MW":0,"Hydro_MW":240,"HydroPS_MW":0,"Nuclear_MW":0,"Solar_MW":0,"Wind_MW":0,"Geo_MW":0,"Bio_MW":0,"Tidal_MW":0,"Source":"http://www.pacificorp.com/es/hydro/hl/lr/construction_projects/construction_status/srffcs0912.html","Period":201705,"orig_ogc_f":90},"geometry":{"type":"Point","coordinates":[-122.20167,46.06083]}},{"type":"Feature","properties":{"Country":"United States","title":"The Dalles Dam","image":"<img src='cascadia/images/Dams/TheDallesDam.jpg'>","text3":"Owner: USACE Northwestern Division","Operator":null,"Latitude":45.614,"Longitude":-121.1346,"City":"The Dalles","County":"Wasco","StateProv":"Oregon","ZipCode":"97058","Address":"P.O. BOX","text2":"Maximum ouput: 1819.70 megawatts","Renew_MW":1819.7,"text1":"Primary Source: Hydroelectric","PrimRenew":"Hydroelectric","Coal_MW":0,"NG_MW":0,"Crude_MW":0,"Other_MW":0,"Hydro_MW":1819.7,"HydroPS_MW":0,"Nuclear_MW":0,"Solar_MW":0,"Wind_MW":0,"Geo_MW":0,"Bio_MW":0,"Tidal_MW":0,"Source":"https://en.wikipedia.org/wiki/The_Dalles_Dam#/media/File:ThDllsDam1.jpg","Period":201705,"orig_ogc_f":91},"geometry":{"type":"Point","coordinates":[-121.1346,45.614]}},{"type":"Feature","properties":{"Country":"United States","title":"Trinity Dam","image":"<img src='cascadia/images/Dams/TrinityDam.jpg'>","text3":"Owner: U S Bureau of Reclamation","Operator":null,"Latitude":40.797296,"Longitude":-122.762553,"City":"Weaverville","County":"Trinity","StateProv":"California","ZipCode":"96003","Address":"n/a","text2":"Maximum ouput: 140 megawatts","Renew_MW":140,"text1":"Primary Source: Hydroelectric","PrimRenew":"Hydroelectric","Coal_MW":0,"NG_MW":0,"Crude_MW":0,"Other_MW":0,"Hydro_MW":140,"HydroPS_MW":0,"Nuclear_MW":0,"Solar_MW":0,"Wind_MW":0,"Geo_MW":0,"Bio_MW":0,"Tidal_MW":0,"Source":"https://commons.wikimedia.org/wiki/Category:Trinity_Dam#/media/File:TrinityDam1.jpg","Period":201705,"orig_ogc_f":93},"geometry":{"type":"Point","coordinates":[-122.76255,40.7973]}},{"type":"Feature","properties":{"Country":"United States","title":"Upper Baker Dam","image":"<img src='cascadia/images/Dams/UpperBakerDam.jpg'>","text3":"Owner: Puget Sound Energy Inc","Operator":null,"Latitude":48.649,"Longitude":-121.6907,"City":"Concrete","County":"Whatcom","StateProv":"Washington","ZipCode":"98237","Address":"46110 E Main St","text2":"Maximum ouput: 104.80 megawatts","Renew_MW":104.8,"text1":"Primary Source: Hydroelectric","PrimRenew":"Hydroelectric","Coal_MW":0,"NG_MW":0,"Crude_MW":0,"Other_MW":0,"Hydro_MW":104.8,"HydroPS_MW":0,"Nuclear_MW":0,"Solar_MW":0,"Wind_MW":0,"Geo_MW":0,"Bio_MW":0,"Tidal_MW":0,"Source":"https://alchetron.com/Upper-Baker-Dam","Period":201705,"orig_ogc_f":96},"geometry":{"type":"Point","coordinates":[-121.6907,48.649]}},{"type":"Feature","properties":{"Country":"United States","title":"Wanapum Dam","image":"<img src='cascadia/images/Dams/WanapumDam.jpg'>","text3":"Owner: PUD No 2 of Grant County","Operator":null,"Latitude":46.8731,"Longitude":-119.9703,"City":"Beverly","County":"Grant","StateProv":"Washington","ZipCode":"99321","Address":"14353 Highway 243","text2":"Maximum ouput: 1061.60 megawatts","Renew_MW":1061.6,"text1":"Primary Source: Hydroelectric","PrimRenew":"Hydroelectric","Coal_MW":0,"NG_MW":0,"Crude_MW":0,"Other_MW":0,"Hydro_MW":1061.6,"HydroPS_MW":0,"Nuclear_MW":0,"Solar_MW":0,"Wind_MW":0,"Geo_MW":0,"Bio_MW":0,"Tidal_MW":0,"Source":"https://commons.wikimedia.org/wiki/Category:Wanapum_Dam#/media/File:Aerial_-_Wanapum_Dam_to_Vantage,_WA,_Columbia_River_01_-_white_balanced_(9793434594).jpg","Period":201705,"orig_ogc_f":97},"geometry":{"type":"Point","coordinates":[-119.9703,46.8731]}},{"type":"Feature","properties":{"Country":"United States","title":"Wells Dam","image":"<img src='cascadia/images/Dams/WellsDam.jpg'>","text3":"Owner: PUD No 1 of Douglas County","Operator":null,"Latitude":47.9469,"Longitude":-119.8653,"City":"Pateros","County":"Douglas","StateProv":"Washington","ZipCode":"98846","Address":"28905 Highway 97","text2":"Maximum ouput: 774 megawatts","Renew_MW":774,"text1":"Primary Source: Hydroelectric","PrimRenew":"Hydroelectric","Coal_MW":0,"NG_MW":0,"Crude_MW":0,"Other_MW":0,"Hydro_MW":774,"HydroPS_MW":0,"Nuclear_MW":0,"Solar_MW":0,"Wind_MW":0,"Geo_MW":0,"Bio_MW":0,"Tidal_MW":0,"Source":"http://www.transpacmarinas.com/wells-dam.aspx","Period":201705,"orig_ogc_f":98},"geometry":{"type":"Point","coordinates":[-119.8653,47.9469]}},{"type":"Feature","properties":{"Country":"United States","title":"Yale Dam","image":"<img src='cascadia/images/Dams/YaleDam.jpg'>","text3":"Owner: PacifiCorp","Operator":null,"Latitude":45.96277,"Longitude":-122.335467,"City":"Amboy","County":"Cowlitz","StateProv":"Washington","ZipCode":"98601","Address":"200 Yale Village Road","text2":"Maximum ouput: 134 megawatts","Renew_MW":134,"text1":"Primary Source: Hydroelectric","PrimRenew":"Hydroelectric","Coal_MW":0,"NG_MW":0,"Crude_MW":0,"Other_MW":0,"Hydro_MW":134,"HydroPS_MW":0,"Nuclear_MW":0,"Solar_MW":0,"Wind_MW":0,"Geo_MW":0,"Bio_MW":0,"Tidal_MW":0,"Source":"http://www.columbian.com/news/2010/jun/24/inspection-spurs-alarm-about-dams/","Period":201705,"orig_ogc_f":103},"geometry":{"type":"Point","coordinates":[-122.33547,45.96277]}},{"type":"Feature","properties":{"Country":"Canada","title":"Arrow Lakes Dam","image":"<img src='cascadia/images/Dams/ArrowLakesDam.jpg'>","text3":"Owner: Columbia Power (50%) / Columbia Basin Trust (50%)","Operator":"Arrow Lakes Power Corp","Latitude":49.343024,"Longitude":-117.768849,"City":"Slocan","County":null,"StateProv":"British Columbia","ZipCode":null,"Address":null,"text2":"Maximum ouput: 185 megawatts","Renew_MW":185,"text1":"Primary Source: Hydroelectric","PrimRenew":"Hydroelectric","Coal_MW":0,"NG_MW":0,"Crude_MW":0,"Other_MW":0,"Hydro_MW":185,"HydroPS_MW":0,"Nuclear_MW":0,"Solar_MW":0,"Wind_MW":0,"Geo_MW":0,"Bio_MW":0,"Tidal_MW":0,"Source":"https://columbiapower.org/category/news-media/galleries/gallery-arrow-lakes-generating-station/","Period":201708,"orig_ogc_f":106},"geometry":{"type":"Point","coordinates":[-117.76885,49.34302]}},{"type":"Feature","properties":{"Country":"Canada","title":"Bridge River 1 Dam","image":"<img src='cascadia/images/Dams/BridgeRiverDam.jpg'>","text3":"Owner: BC Hydro","Operator":"BC Hydro","Latitude":50.72985,"Longitude":-122.240037,"City":"Bridge River","County":null,"StateProv":"British Columbia","ZipCode":null,"Address":null,"text2":"Maximum ouput: 180 megawatts","Renew_MW":180,"text1":"Primary Source: Hydroelectric","PrimRenew":"Hydroelectric","Coal_MW":0,"NG_MW":0,"Crude_MW":0,"Other_MW":0,"Hydro_MW":180,"HydroPS_MW":0,"Nuclear_MW":0,"Solar_MW":0,"Wind_MW":0,"Geo_MW":0,"Bio_MW":0,"Tidal_MW":0,"Source":"https://www.bchydro.com/community/recreation_areas/bridge_river/story.html","Period":201708,"orig_ogc_f":107},"geometry":{"type":"Point","coordinates":[-122.24004,50.72985]}},{"type":"Feature","properties":{"Country":"Canada","title":"Bridge River Powerhouse","image":"<img src='cascadia/images/Dams/BridgeRiverPowerhouse.jpg'>","Owner":"BC Hydro","Operator":null,"Latitude":50.723128,"Longitude":-122.243403,"City":"Bridge River","County":null,"StateProv":"British Columbia","ZipCode":null,"Address":null,"text2":"Maximum ouput: 298 megawatts","Renew_MW":298,"text1":"Primary Source: Hydroelectric","PrimRenew":"Hydroelectric","Coal_MW":0,"NG_MW":0,"Crude_MW":0,"Other_MW":0,"Hydro_MW":298,"HydroPS_MW":0,"Nuclear_MW":0,"Solar_MW":0,"Wind_MW":0,"Geo_MW":0,"Bio_MW":0,"Tidal_MW":0,"Source":"https://www.bchydro.com/content/dam/hydro/medialib/internet/images/places/bc_hydro_facilities/bridge_river/bridge_river_powerhouse0.jpeg","Period":201708,"orig_ogc_f":108},"geometry":{"type":"Point","coordinates":[-122.2434,50.72313]}},{"type":"Feature","properties":{"Country":"Canada","title":"Brilliant Dam","image":"<img src='cascadia/images/Dams/BrilliantDam.jpg'>","text3":"Owner: Columbia Power (50%) / Columbia Basin Trust (50%)","Operator":"FortisBC","Latitude":49.32488,"Longitude":-117.620653,"City":"Kootenay River","County":null,"StateProv":"British Columbia","ZipCode":null,"Address":null,"text2":"Maximum ouput: 140 megawatts","Renew_MW":140,"text1":"Primary Source: Hydroelectric","PrimRenew":"Hydroelectric","Coal_MW":0,"NG_MW":0,"Crude_MW":0,"Other_MW":0,"Hydro_MW":140,"HydroPS_MW":0,"Nuclear_MW":0,"Solar_MW":0,"Wind_MW":0,"Geo_MW":0,"Bio_MW":0,"Tidal_MW":0,"Source":"https://en.wikipedia.org/wiki/Brilliant_Dam#/media/File:Brilliant_Dam.jpg","Period":201708,"orig_ogc_f":109},"geometry":{"type":"Point","coordinates":[-117.62065,49.32488]}},{"type":"Feature","properties":{"Country":"Canada","title":"Brilliant Expansion","image":"<img src='cascadia/images/Dams/BrilliantDamExpansion.jpg'>","text3":"Owner: Columbia Power (50%) / Columbia Basin Trust (50%)","Operator":"FortisBC","Latitude":49.323118,"Longitude":-117.619793,"City":"Castlegar","County":null,"StateProv":"British Columbia","ZipCode":null,"Address":null,"text2":"Maximum ouput: 120 megawatts","Renew_MW":120,"text1":"Primary Source: Hydroelectric","PrimRenew":"Hydroelectric","Coal_MW":0,"NG_MW":0,"Crude_MW":0,"Other_MW":0,"Hydro_MW":120,"HydroPS_MW":0,"Nuclear_MW":0,"Solar_MW":0,"Wind_MW":0,"Geo_MW":0,"Bio_MW":0,"Tidal_MW":0,"Source":"https://columbiapower.org/category/news-media/galleries/gallery-brilliant-expansion-generating-project/","Period":201708,"orig_ogc_f":110},"geometry":{"type":"Point","coordinates":[-117.61979,49.32312]}},{"type":"Feature","properties":{"Country":"Canada","title":"Cheakamus Dam","image":"<img src='cascadia/images/Dams/CheakamusDam.jpg'>","text3":"Owner: BC Hydro","Operator":"BC Hydro","Latitude":49.933702,"Longitude":-123.290985,"City":"Cheakamus River","County":null,"StateProv":"British Columbia","ZipCode":null,"Address":null,"text2":"Maximum ouput: 158 megawatts","Renew_MW":158,"text1":"Primary Source: Hydroelectric","PrimRenew":"Hydroelectric","Coal_MW":0,"NG_MW":0,"Crude_MW":0,"Other_MW":0,"Hydro_MW":158,"HydroPS_MW":0,"Nuclear_MW":0,"Solar_MW":0,"Wind_MW":0,"Geo_MW":0,"Bio_MW":0,"Tidal_MW":0,"Source":"https://www.bchydro.com/news/press_centre/image_library/image_library_facilities.html#cheakamus","Period":201708,"orig_ogc_f":111},"geometry":{"type":"Point","coordinates":[-123.29098,49.9337]}},{"type":"Feature","properties":{"Country":"Canada","title":"East Toba Dam","image":"<img src='cascadia/images/Dams/.jpg'>","Owner":"","Operator":"Toba Montrose General Partnership","Latitude":50.675081,"Longitude":-123.960276,"City":"Powell River","County":null,"StateProv":"British Columbia","ZipCode":null,"Address":null,"text2":"Maximum ouput: 123 megawatts","Renew_MW":123,"text1":"Primary Source: Hydroelectric","PrimRenew":"Hydroelectric","Coal_MW":0,"NG_MW":0,"Crude_MW":0,"Other_MW":0,"Hydro_MW":123,"HydroPS_MW":0,"Nuclear_MW":0,"Solar_MW":0,"Wind_MW":0,"Geo_MW":0,"Bio_MW":0,"Tidal_MW":0,"Source":"BC Hydro IPP supply","Period":201704,"orig_ogc_f":112},"geometry":{"type":"Point","coordinates":[-123.96028,50.67508]}},{"type":"Feature","properties":{"Country":"Canada","title":"Forrest Kerr Dam","image":"<img src='cascadia/images/Dams/ForrestKerrDam.jpg'>","text3":"Owner: AltaGas","Operator":null,"Latitude":56.717162,"Longitude":-130.686601,"City":null,"County":null,"StateProv":"British Columbia","ZipCode":null,"Address":null,"text2":"Maximum ouput: 195 megawatts","Renew_MW":195,"text1":"Primary Source: Hydroelectric","PrimRenew":"Hydroelectric","Coal_MW":0,"NG_MW":0,"Crude_MW":0,"Other_MW":0,"Hydro_MW":195,"HydroPS_MW":0,"Nuclear_MW":0,"Solar_MW":0,"Wind_MW":0,"Geo_MW":0,"Bio_MW":0,"Tidal_MW":0,"Source":"https://www.altagas.ca/infrastructure/operations/forrest-kerr-hydroelectric-facility","Period":201708,"orig_ogc_f":113},"geometry":{"type":"Point","coordinates":[-130.6866,56.71716]}},{"type":"Feature","properties":{"Country":"Canada","title":"John Hart Dam","image":"<img src='cascadia/images/Dams/JohnHartDam.jpg'>","text3":"Owner: BC Hydro","Operator":"BC Hydro","Latitude":50.044,"Longitude":-125.310893,"City":"Campbell River","County":null,"StateProv":"British Columbia","ZipCode":null,"Address":null,"text2":"Maximum ouput: 126 megawatts","Renew_MW":126,"text1":"Primary Source: Hydroelectric","PrimRenew":"Hydroelectric","Coal_MW":0,"NG_MW":0,"Crude_MW":0,"Other_MW":0,"Hydro_MW":126,"HydroPS_MW":0,"Nuclear_MW":0,"Solar_MW":0,"Wind_MW":0,"Geo_MW":0,"Bio_MW":0,"Tidal_MW":0,"Source":"https://www.bchydro.com/community/recreation_areas/john_hart.html","Period":201708,"orig_ogc_f":115},"geometry":{"type":"Point","coordinates":[-125.31089,50.044]}},{"type":"Feature","properties":{"Country":"Canada","title":"Jordan River Dam","image":"<img src='cascadia/images/Dams/JordanRiverDam.jpg'>","text3":"Owner: BC Hydro<br>Wikipedia article <a href='https://en.wikipedia.org/wiki/Jordan_River_Dam' target='_blank'>here</a>.","Operator":"BC Hydro","Latitude":48.429655,"Longitude":-124.052251,"City":"Jordan River","County":null,"StateProv":"British Columbia","ZipCode":null,"Address":null,"text2":"Maximum ouput: 170 megawatts","Renew_MW":170,"text1":"Primary Source: Hydroelectric","PrimRenew":"Hydroelectric","Coal_MW":0,"NG_MW":0,"Crude_MW":0,"Other_MW":0,"Hydro_MW":170,"HydroPS_MW":0,"Nuclear_MW":0,"Solar_MW":0,"Wind_MW":0,"Geo_MW":0,"Bio_MW":0,"Tidal_MW":0,"Source":"https://www.bchydro.com/news/press_centre/image_library/image_library_facilities.html#jordan_river","Period":201708,"orig_ogc_f":116},"geometry":{"type":"Point","coordinates":[-124.05225,48.42966]}},{"type":"Feature","properties":{"Country":"Canada","title":"Kenney Dam","image":"<img src='cascadia/images/Dams/KenneyDam.jpg'>","Owner":"Rio Tinto Alcan","Operator":"Alcan Primary Metal","Latitude":53.563171,"Longitude":-127.942556,"City":"Kemano","County":null,"StateProv":"British Columbia","ZipCode":null,"Address":null,"text2":"Maximum ouput: 896 megawatts","Renew_MW":896,"text1":"Primary Source: Hydroelectric","PrimRenew":"Hydroelectric","Coal_MW":0,"NG_MW":0,"Crude_MW":0,"Other_MW":0,"Hydro_MW":896,"HydroPS_MW":0,"Nuclear_MW":0,"Solar_MW":0,"Wind_MW":0,"Geo_MW":0,"Bio_MW":0,"Tidal_MW":0,"Source":"https://www.myprincegeorgenow.com/21877/stellaten-saikuz-fight-against-rio-tinto-alcan-upheld-by-supreme-court/","Period":201704,"orig_ogc_f":117},"geometry":{"type":"Point","coordinates":[-127.94256,53.56317]}},{"type":"Feature","properties":{"Country":"Canada","title":"Kootenay Canal Dam","image":"<img src='cascadia/images/Dams/KootenayCanalDam.jpg'>","text3":"Owner: BC Hydro","Operator":"BC Hydro","Latitude":49.453258,"Longitude":-117.517897,"City":"Kootenay River","County":null,"StateProv":"British Columbia","ZipCode":null,"Address":null,"text2":"Maximum ouput: 570 megawatts","Renew_MW":570,"text1":"Primary Source: Hydroelectric","PrimRenew":"Hydroelectric","Coal_MW":0,"NG_MW":0,"Crude_MW":0,"Other_MW":0,"Hydro_MW":570,"HydroPS_MW":0,"Nuclear_MW":0,"Solar_MW":0,"Wind_MW":0,"Geo_MW":0,"Bio_MW":0,"Tidal_MW":0,"Source":"https://www.bchydro.com/news/press_centre/image_library/image_library_facilities.html#kootenay_canal","Period":201708,"orig_ogc_f":118},"geometry":{"type":"Point","coordinates":[-117.5179,49.45326]}},{"type":"Feature","properties":{"Country":"Canada","title":"Mica Dam","image":"<img src='cascadia/images/Dams/MicaDam.jpg'>","text3":"Owner: BC Hydro","Operator":"BC Hydro","Latitude":52.075872,"Longitude":-118.570515,"City":"Columbia River","County":null,"StateProv":"British Columbia","ZipCode":null,"Address":null,"text2":"Maximum ouput: 2746 megawatts","Renew_MW":2746,"text1":"Primary Source: Hydroelectric","PrimRenew":"Hydroelectric","Coal_MW":0,"NG_MW":0,"Crude_MW":0,"Other_MW":0,"Hydro_MW":2746,"HydroPS_MW":0,"Nuclear_MW":0,"Solar_MW":0,"Wind_MW":0,"Geo_MW":0,"Bio_MW":0,"Tidal_MW":0,"Source":"https://www.bchydro.com/content/dam/hydro/medialib/internet/images/places/bc_hydro_facilities/mica/mica_dam_1600_x_1200.jpeg","Period":201708,"orig_ogc_f":119},"geometry":{"type":"Point","coordinates":[-118.57051,52.07587]}},{"type":"Feature","properties":{"Country":"Canada","title":"Revelstoke Dam","image":"<img src='cascadia/images/Dams/RevelstokeDam.jpg'>","text3":"Owner: BC Hydro","Operator":"BC Hydro","Latitude":51.048563,"Longitude":-118.193945,"City":"Columbia River","County":null,"StateProv":"British Columbia","ZipCode":null,"Address":null,"text2":"Maximum ouput: 2480 megawatts","Renew_MW":2480,"text1":"Primary Source: Hydroelectric","PrimRenew":"Hydroelectric","Coal_MW":0,"NG_MW":0,"Crude_MW":0,"Other_MW":0,"Hydro_MW":2480,"HydroPS_MW":0,"Nuclear_MW":0,"Solar_MW":0,"Wind_MW":0,"Geo_MW":0,"Bio_MW":0,"Tidal_MW":0,"Source":"https://www.bchydro.com/content/dam/hydro/medialib/internet/images/places/bc_hydro_facilities/revelstoke/revelstoke_dam_201010181.jpeg","Period":201708,"orig_ogc_f":120},"geometry":{"type":"Point","coordinates":[-118.19394,51.04856]}},{"type":"Feature","properties":{"Country":"Canada","title":"Ruskin Dam","image":"<img src='cascadia/images/Dams/RuskinDam.jpg'>","text3":"Owner: BC Hydro","Operator":"BC Hydro","Latitude":49.194973,"Longitude":-122.408341,"City":"Hayward Lake","County":null,"StateProv":"British Columbia","ZipCode":null,"Address":null,"text2":"Maximum ouput: 105 megawatts","Renew_MW":105,"text1":"Primary Source: Hydroelectric","PrimRenew":"Hydroelectric","Coal_MW":0,"NG_MW":0,"Crude_MW":0,"Other_MW":0,"Hydro_MW":105,"HydroPS_MW":0,"Nuclear_MW":0,"Solar_MW":0,"Wind_MW":0,"Geo_MW":0,"Bio_MW":0,"Tidal_MW":0,"Source":"https://en.wikipedia.org/wiki/Ruskin_Dam_and_Powerhouse#/media/File:BC_Hydro_Ruskin_Generating_Station.jpg","Period":201708,"orig_ogc_f":121},"geometry":{"type":"Point","coordinates":[-122.40834,49.19497]}},{"type":"Feature","properties":{"Country":"Canada","title":"Seven Mile Dam","image":"<img src='cascadia/images/Dams/SevenMileDam.jpg'>","text3":"Owner: BC Hydro","Operator":"BC Hydro","Latitude":49.030161,"Longitude":-117.504098,"City":"Pend D'Oreille River","County":null,"StateProv":"British Columbia","ZipCode":null,"Address":null,"text2":"Maximum ouput: 805 megawatts","Renew_MW":805,"text1":"Primary Source: Hydroelectric","PrimRenew":"Hydroelectric","Coal_MW":0,"NG_MW":0,"Crude_MW":0,"Other_MW":0,"Hydro_MW":805,"HydroPS_MW":0,"Nuclear_MW":0,"Solar_MW":0,"Wind_MW":0,"Geo_MW":0,"Bio_MW":0,"Tidal_MW":0,"Source":"https://www.bchydro.com/content/dam/hydro/medialib/internet/images/places/bc_hydro_facilities/seven_mile/seven_mile_dam_2_1000.jpeg","Period":201708,"orig_ogc_f":122},"geometry":{"type":"Point","coordinates":[-117.5041,49.03016]}},{"type":"Feature","properties":{"Country":"Canada","title":"Waneta Dam","image":"<img src='cascadia/images/Dams/WanetaDam.jpg'>","text3":"Owner: BC Hydro (33%) / Teck Metals (66%)","Operator":"FortisBC","Latitude":49.004148,"Longitude":-117.612867,"City":"Pend D'Oreille River","County":null,"StateProv":"British Columbia","ZipCode":null,"Address":null,"text2":"Maximum ouput: 493.20 megawatts","Renew_MW":493.2,"text1":"Primary Source: Hydroelectric","PrimRenew":"Hydroelectric","Coal_MW":0,"NG_MW":0,"Crude_MW":0,"Other_MW":0,"Hydro_MW":493.2,"HydroPS_MW":0,"Nuclear_MW":0,"Solar_MW":0,"Wind_MW":0,"Geo_MW":0,"Bio_MW":0,"Tidal_MW":0,"Source":"http://vancouversun.com/news/local-news/b-c-hydro-opts-to-become-sole-oner-of-waneta-dam-in-trail","Period":201506,"orig_ogc_f":123},"geometry":{"type":"Point","coordinates":[-117.61287,49.00415]}},{"type":"Feature","properties":{"Country":"Canada","title":"Waneta Expansion","image":"<img src='cascadia/images/Dams/WanetaExpansion.jpg'>","text3":"Owner: Fortis Inc (51%) / Columbia Power (32.5%) / Columbia Basin Trust (16.5%)","Operator":null,"Latitude":49.004675,"Longitude":-117.615993,"City":"Pend d’Oreille River","County":null,"StateProv":"British Columbia","ZipCode":null,"Address":null,"text2":"Maximum ouput: 335 megawatts","Renew_MW":335,"text1":"Primary Source: Hydroelectric","PrimRenew":"Hydroelectric","Coal_MW":0,"NG_MW":0,"Crude_MW":0,"Other_MW":0,"Hydro_MW":335,"HydroPS_MW":0,"Nuclear_MW":0,"Solar_MW":0,"Wind_MW":0,"Geo_MW":0,"Bio_MW":0,"Tidal_MW":0,"Source":"Columbia Power","Period":201708,"orig_ogc_f":124},"geometry":{"type":"Point","coordinates":[-117.61599,49.00468]}}]}