{"type":"FeatureCollection","crs":{"type":"name","properties":{"name":"urn:ogc:def:crs:OGC:1.3:CRS84"}},"features":[{"type":"Feature","properties":{"Country":"United States","title":"Boardman Coal Plant","image":"<img src='cascadia/images/BoardmanCoalPlant.jpg'>","text3":"Owner: Portland General Electric Co<br>\"The plant currently accounts for 65% of stationary SO2 emissions, and 7% of CO2 emissions in Oregon.\"<br>Wikipedia article <a href='https://en.wikipedia.org/wiki/Boardman_Coal_Plant' target='_blank'>here.</a>","Operator":null,"Latitude":45.693182,"Longitude":-119.808819,"City":"Boardman","County":"Morrow","StateProv":"Oregon","ZipCode":"97818","Address":"73334 Tower Rd","text2":"Primary source: Coal","Renew_MW":0,"PrimRenew":null,"Coal_MW":642.2,"NG_MW":0,"Crude_MW":0,"Other_MW":0,"Hydro_MW":0,"HydroPS_MW":0,"Nuclear_MW":0,"Solar_MW":0,"Wind_MW":0,"Geo_MW":0,"Bio_MW":0,"Tidal_MW":0,"Source":"EIA-860, EIA-860M and EIA-923","Period":201705,"orig_ogc_f":5},"geometry":{"type":"Point","coordinates":[-119.80882,45.69318]}},{"type":"Feature","properties":{"Country":"United States","title":"Transalta Centralia Generation","image":"<img src='cascadia/images/TransaltaCentraliaGeneration.jpg'>","text3":"Owner: TransAlta Centralia Gen LLC<br>Source Watch article <a href='https://www.sourcewatch.org/index.php/Centralia_Power_Plant' target='_blank'>here</a>.","Operator":null,"Latitude":46.755938,"Longitude":-122.859764,"City":"Centralia","County":"Lewis","StateProv":"Washington","ZipCode":"98531","Address":"913 Big Hanaford Rd.","text2":"Maximum output: 1459 megawatts","Renew_MW":0,"text1":"Primary source: Coal","PrimRenew":null,"Coal_MW":1459.8,"NG_MW":0,"Crude_MW":0,"Other_MW":0,"Hydro_MW":0,"HydroPS_MW":0,"Nuclear_MW":0,"Solar_MW":0,"Wind_MW":0,"Geo_MW":0,"Bio_MW":0,"Tidal_MW":0,"Source":"EIA-860, EIA-860M and EIA-923","Period":201705,"orig_ogc_f":92},"geometry":{"type":"Point","coordinates":[-122.85976,46.75594]}}]}